호선,역명,구,동,역코드,위도,경도,주소
01호선,서울,중구,봉래동2가,150,37.554648,126.972559,서울특별시 세종대로 지하 2 (남대문로 5가) (1호선 서울역)
01호선,시청,중구,정동,151,37.564718,126.977108,서울특별시 세종대로 지하 101 (정동) (1호선 시청역)
01호선,종각,종로구,종로1.2.3.5가동,152,37.570161,126.982923,서울특별시 종로구 종로 지하 55 (종로1가) (종각역)
01호선,종로3가,종로구,종로1.2.3.4가동,153,37.571607,126.991806,서울특별시 종로구 종로 지하 129 (종로3가) (1호선 종로3가역)
01호선,종로5가,종로구,종로5.6가동,154,37.570926,127.001849,서울특별시 종로구 종로 지하 216  (종로5가) (1호선 종로5가역)
01호선,동대문,종로구,창신동,155,37.57142,127.009745,서울특별시 종로구 종로 지하 302 (창신1동) (1호선 동대문역)
01호선,신설동,동대문구,신설동,156,37.575297,127.025087,서울특별시 동대문구 왕산로 지하 1 (신설동) (1호선 신설동역)
01호선,제기동,동대문구,제기동,157,37.578103,127.034893,서울특별시 동대문구 왕산로 지하 93 (제기동) (제기동역)
01호선,청량리,동대문구,전농동,158,37.580178,127.046835,서울특별시 동대문구 왕산로 지하 205 (전농동) (청량리역)
01호선,동묘앞,종로구,숭인동,159,37.572627,127.016429,서울특별시 종로구 종로 359 (숭인동) (1호선 동묘앞역)
01호선,남영,용산구,갈월동,1002,37.541021,126.9713,서울특별시 용산구 한강대로77길 25
01호선,용산,용산구,한강로동,1003,37.529849,126.964561,서울특별시 용산구 한강대로23길 55
01호선,노량진,동작구,노량진동,1004,37.514219,126.942454,서울특별시 동작구 노량진로 151
01호선,대방,영등포구,신길동,1005,37.513342,126.926382,서울특별시 영등포구 여의대방로 300
01호선,영등포,영등포구,영등포동,1006,37.515504,126.907628,서울특별시 영등포구 경인로 846
01호선,신도림,구로구,신도림동,1007,37.508725,126.891295,서울특별시 구로구 새마로 지하117-21
01호선,회기,동대문구,휘경동,1015,37.58946,127.057583,서울특별시 동대문구 회기로 196
01호선,외대앞,동대문구,이문동,1016,37.596073,127.063549,서울특별시 동대문구 휘경로 27
01호선,신이문,동대문구,이문동,1017,37.601854,127.067325,서울특별시 동대문구 한천로 472
01호선,석계,노원구,월계동,1018,37.614805,127.065851,서울특별시 노원구 화랑로 341
01호선,광운대,노원구,월계동,1019,37.623632,127.061835,서울특별시 노원구 석계로 98-2
01호선,월계,노원구,월계동,1020,37.633212,127.058831,서울특별시 노원구 월계로53길 40
01호선,녹천,도봉구,창동,1021,37.644799,127.051269,서울특별시 도봉구 덕릉로 376
01호선,창동,도봉구,창동,1022,37.653166,127.047731,서울특별시 도봉구 마들로11길 77
01호선,신길,영등포구,신길동,1032,37.517122,126.917169,서울특별시 영등포구 영등포로 327
01호선,구로,구로구,구로동,1701,37.503039,126.881966,서울특별시 구로구 구로중앙로 174
01호선,가산디지털단지,금천구,가산동,1702,37.481072,126.882343,서울특별시 금천구 벚꽃로 309
01호선,금천구청,금천구,시흥동,1703,37.455626,126.89398,서울특별시 금천구 시흥대로 63길 91
01호선,독산,금천구,가산동,1714,37.466613,126.889249,서울특별시 금천구 벚꽃로 115
01호선,개봉,구로구,개보동,1801,37.494594,126.85868,서울특별시 구로구 경인로40길 47
01호선,오류동,구로구,오류동,1802,37.494526,126.845365,서울특별시 구로구 경인로 20길 13
01호선,구일,구로구,구로동,1813,37.496756,126.870793,서울특별시 구로구 구일로 133
01호선,온수,구로구,온수동,1821,37.492258,126.823388,서울특별시 구로구 부일로 872
01호선,방학,도봉구,방학동,1901,37.667503,127.044273,서울특별시 도봉구 도봉로 150다길 3
01호선,도봉,도봉구,도봉동,1902,37.679563,127.045595,서울특별시 도봉구 도봉로 170길 2
01호선,도봉산,도봉구,도봉동,1903,37.689313,127.046222,서울특별시 도봉구 도봉로 964-33
02호선,까치산,강서구,화곡동,200,37.531768,126.846683,서울특별시 강서구 강서로 지하54 (까치산역)
02호선,시청,중구,서소문동,201,37.564718,126.977108,서울특별시 중구 서소문로 지하 127 (서소문동) (2호선 시청역)
02호선,을지로입구,중구,을지로동,202,37.566014,126.982618,서울특별시 중구 을지로 지하 42 (을지입구역)
02호선,을지로3가,중구,신설동.6가동,203,37.566295,126.99191,서울특별시 중구 을지로 지하 106 (2호선 을지로3가역)
02호선,을지로4가,중구,을지로동,204,37.566941,126.998079,서울특별시 중구 을지로 지하 178 (2호선 을지로4가역)
02호선,동대문역사문화공원,중구,신당동,205,37.565138,127.007896,서울특별시 중구 을지로 지하 279 (2호선 동대문역역사문화공원역)
02호선,신당,중구,신당동,206,37.565972,127.01782,서울특별시 중구 퇴계로 지하 431-1 (2호선 신당역)
02호선,상왕십리,성동구,하왕십리동,207,37.564354,127.029354,서울특별시 성동구 왕십리로 지하 374 (상왕십리역)
02호선,왕십리,성동구,당산동,208,37.561533,127.037732,서울특별시 성동구 왕십리로 지하300 (2호선 왕십리역)
02호선,한양대,성동구,행당동,209,37.555273,127.043655,서울특별시 성동구 왕십리로 206 (한양대역)
02호선,뚝섬,성동구,성수1가2동,210,37.547184,127.047367,서울특별시 성동구 아차산로18 (뚝섬역)
02호선,성수,성동구,성수2가3동,211,37.544581,127.055961,서울특별시 성동구 아차산로 100 (성수역)
02호선,건대입구,광진구,자양동,212,37.540693,127.07023,서울특별시 광진구 아차산로 243 (2호선 건대입구역)
02호선,구의,광진구,자양동,213,37.537077,127.085916,서울특별시 광진구 아차산로 384-1 (구의역)
02호선,강변,광진구,구의동,214,37.535095,127.094681,서울특별시 광진구 강변역로 53 (강변역)
02호선,잠실나루,송파구,잠실동,215,37.520733,127.10379,서울특별시 송파구 오금로 20 (잠실나루역)
02호선,잠실,송파구,대흥동,216,37.51395,127.102234,서울특별시 송파구 올림픽로 지하 265 (2호선 잠실역)
02호선,잠실새내,송파구,신천동,217,37.511687,127.086162,서울특별시 송파구 올림픽로 140
02호선,종합운동장,송파구,잠실동,218,37.510997,127.073642,서울특별시 송파구 올림픽로 지하 23 (종합운동장역)
02호선,삼성,강남구,삼성동,219,37.508844,127.06316,서울특별시 강남구 테헤란로 지하 538 (삼성역)
02호선,선릉,강남구,삼성2동,220,37.504503,127.049008,서울특별시 강남구 테헤란로 지하 340 (2호선 선릉역)
02호선,역삼,강남구,신정3동,221,37.500622,127.036456,서울특별시 강남구 테헤란로 지하 156 (역삼역)
02호선,강남,강남구,역삼동,222,37.497175,127.027926,서울특별시 강남구 강남대로 지하 396 (2호선 강남역)
02호선,교대,서초구,서초1동,223,37.493415,127.01408,서울특별시 서초구 서초대로 지하 294 (2호선 교대역)
02호선,서초,서초구,서초3동,224,37.491897,127.007917,서울특별시 서초구 서초대로 지하 233 (서초역)
02호선,방배,서초구,방배동,225,37.481426,126.997596,서울특별시 서초구 방배로 지하 80 (방배역)
02호선,사당,동작구,사당1동,226,37.47653,126.981685,서울특별시 동작구 남부순환로 지하 2089(사당동) (2호선 사당역)
02호선,낙성대,관악구,봉천6동,227,37.47693,126.963693,서울특별시 관악구 남부순환로 지하 1928(봉천동) (2호선 낙성대역)
02호선,서울대입구,관악구,봉천6동,228,37.481247,126.952739,서울특별시 관악구 남부순환로 지하 1822 (서울대입구역)
02호선,봉천,관악구,봉천8동,229,37.482362,126.941892,서울특별시 관악구 남부순환로 지하 1721 (봉천역)
02호선,신림,관악구,신림본동,230,37.484201,126.929715,서울특별시 관악구 남부순환로 지하 1614 (신림역)
02호선,신대방,동작구,신대방1동,231,37.487462,126.913149,서울특별시 동작구 대림로 2(신대방동 신대방역)
02호선,구로디지털단지,구로구,구로3동,232,37.485266,126.901401,서울특별시 구로구 도림천로 477 (구로디지털단지역)
02호선,대림,구로구,구로6동,233,37.49297,126.895801,서울특별시 구로구 도림천로 352 (2호선 대림역)
02호선,신도림,구로구,신도림동,234,37.508725,126.891295,서울특별시 구로구 새말로 117-21 (2호선 신도림역)
02호선,문래,영등포구,문래동,235,37.517933,126.89476,서울특별시 영등포구 당산로 지하 28(문래동3가) (문래역)
02호선,영등포구청,영등포구,역삼1동,236,37.52497,126.895951,서울특별시 영등포구 당산로 121(당산동3가) (2호선 영등포구청역)
02호선,당산,영등포구,당산동,237,37.53438,126.902281,서울특별시 영등포구 당산로 229(당산동 6가) (2호선 당산역)
02호선,합정,마포구,서교동,238,37.549463,126.913739,서울특별시 마포구 양화로 지하 55 (2호선 합정역)
02호선,홍대입구,마포구,동교동,239,37.557192,126.925381,서울특별시 마포구 양화로 지하 55 (2호선 합정역)
02호선,신촌,마포구,잠실본동,240,37.555134,126.936893,서울특별시 마포구 신촌로 지하 90 (신촌역)
02호선,이대,마포구,명동,241,37.556733,126.946013,서울특별시 마포구 신촌로 지하180 (이대역)
02호선,아현,마포구,노고산동,242,37.557345,126.956141,서울특별시 마포구 신촌로 지하 270 (2호선 아현역)
02호선,충정로,서대문구,충현동,243,37.559973,126.963672,서울특별시 서대문구 서소문로 지하 17 (2호선 충정로역)
02호선,용답,성동구,행당동,244,37.561904,127.050899,서울특별시 성동구 용답길 86 (용답역)
02호선,신답,성동구,용답동,245,37.57004,127.046481,서울특별시 성동구 천호대로 232 (신답역)
02호선,신설동,동대문구,신도림동,246,37.575297,127.025087,서울특별시 동대문구 왕산로 지하 1 (신설동) (2호선 신설동역)
02호선,도림천,구로구,신정7동,247,37.514287,126.882768,서울특별시 구로구 신도림동 경인로 67길 (도림천역)
02호선,양천구청,양천구,아현동,248,37.512398,126.865819,서울특별시 양천구 목동로3길 지하 33 (신정동 양천구청역)
02호선,신정네거리,양천구,용두동,249,37.520074,126.852912,서울특별시 양천구 중앙로 지하 261 (2호선 신정네거리역)
02호선,용두,동대문구,용답동,250,37.574028,127.038091,서울특별시 동대문구 천호대로 지하 129 (용두역)
03호선,구파발,은평구,진관동,310,37.636763,126.918821,서울특별시 은평구 진관2로 지하 15-25 (구파발역)
03호선,연신내,은평구,갈현동,311,37.619001,126.921008,서울특별시 은평구 통일로 지하 849 3호선 (연신내역)
03호선,불광,은평구,불광동,312,37.610469,126.929887,서울특별시 은평구 통일로 지하 723-1 3호선 (불광역)
03호선,녹번,은평구,녹변동,313,37.600927,126.935756,서울특별시 은평구 통일로 지하 602-1 (녹번역)
03호선,홍제,서대문구,홍제동,314,37.589066,126.943736,서울특별시 서대문구 통일로 지하 440-1 (홍제역)
03호선,무악재,서대문구,홍제2동,315,37.582299,126.950291,서울특별시 서대문구 통일로 지하 361 (무악재역)
03호선,독립문,서대문구,현저동,316,37.574571,126.957748,서울특별시 서대문구 통일로 지하 247 (독립문역)
03호선,경복궁,종로구,적선동,317,37.575762,126.97353,서울특별시 종로구 사직로 지하 130 (경복궁역)
03호선,안국,종로구,안국동,318,37.576477,126.985443,서울특별시 종로구 율곡로 지하 53 (안국역)
03호선,종로3가,종로구,묘동,319,37.571607,126.991806,서울특별시 종로구 돈화문로 지하 30 (묘동) (3호선 종로3가역)
03호선,을지로3가,중구,을지로동,320,37.566295,126.99191,서울특별시 중구 을지로 지하 129 (3호선 을지로3가역)
03호선,충무로,중구,필동,321,37.561243,126.99428,서울특별시 중구 퇴계로 지하199(충무로역)
03호선,동대입구,중구,장충동,322,37.559052,127.005602,서울특별시 중구 동호로 지하 256 (동대입구역)
03호선,약수,중구,신당동,323,37.55434,127.010655,서울특별시 중구 다산로 지하 122 (3호선 약수역)
03호선,금호,성동구,금호동,324,37.548034,127.015872,서울특별시 성동구 동호로 지하 104 (금호역)
03호선,옥수,성동구,옥수동,325,37.540685,127.017965,서울특별시 성동구 동호로 지하 21 (3호선 옥수역)
03호선,압구정,강남구,압구정동,326,37.527072,127.028461,서울특별시 강남구 압구정로 지하 172 (압구정역)
03호선,신사,강남구,신사동,327,37.516334,127.020114,서울특별시 강남구 도산대로 지하 102 (신사역)
03호선,잠원,서초구,잠원동,328,37.512759,127.01122,서울특별시 서초구 잠원로 4길 지하 46 (잠원역)
03호선,고속터미널,서초구,반포동,329,37.50481,127.004943,서울특별시 서초구 신반포로 지하 188 (3호선 고속터미널역)
03호선,교대,서초구,서초동,330,37.493415,127.01408,서울특별시 서초구 서초대로 지하 294 (3호선 교대역)
03호선,남부터미널,서초구,서초동,331,37.485013,127.016189,서울특별시 서초구 서초중앙로 지하 31 (남부터미널역)
03호선,양재,서초구,양재동,332,37.484147,127.034631,서울특별시 서초구 남부순환로 지하 2585 (3호선 양재역)
03호선,매봉,강남구,도곡동,333,37.486947,127.046769,서울특별시 강남구 남부순환로 지하 2744 (매봉역)
03호선,도곡,강남구,도곡동,334,37.490858,127.055381,서울특별시 강남구 남부순환로 지하 2814 (3호선 도곡역)
03호선,대치,강남구,대치동,335,37.494612,127.063642,서울특별시 강남구 남부순환로 지하 2952 (대치역)
03호선,학여울,강남구,대치동,336,37.496663,127.070594,서울특별시 강남구 남부순환로 지하 3104 (학여울)
03호선,대청,강남구,개포동,337,37.493514,127.079532,서울특별시 강남구 일원로 지하 2 (대청역)
03호선,일원,강남구,일원본동,338,37.483681,127.08439,서울특별시 강남구 일원로 지하 121 (일원역)
03호선,수서,강남구,수서동,339,37.487371,127.10188,서울특별시 강남구 광평로 지하 270 (3호선 수서역)
03호선,가락시장,송파구,가락동,340,37.492522,127.118234,서울특별시 송파구 송파대로 지하 257 (3호선 가락시장역)
03호선,경찰병원,송파구,가락동,341,37.495918,127.12454,서울특별시 송파구 중대로 지하 149 (경찰병원역)
03호선,오금,송파구,오금동,342,37.502162,127.128111,서울특별시 송파구 오금로 지하 321 (3호선 오금역)
04호선,당고개,노원구,상계동,409,37.670272,127.079066,서울특별시 노원구 상계로 305 (당고개역)
04호선,상계,노원구,상계동,410,37.660878,127.073572,서울특별시 노원구 상계로 182 (상계역)
04호선,노원,노원구,상계동,411,37.655128,127.061368,서울특별시 노원구 상계로 69-1 (4호선 노원역)
04호선,창동,도봉구,창동,412,37.653166,127.047731,서울특별시 도봉구 마들로 11길 77 (4호선 창동역)
04호선,쌍문,도봉구,창동,413,37.648627,127.034709,서울특별시 도봉구 도봉로 지하 486-1 (쌍문역)
04호선,수유,강북구,수유동,414,37.638052,127.025732,서울특별시 강북구 도봉로 지하 338 (수유역)
04호선,미아,강북구,미아동,415,37.62667,127.025983,서울특별시 강북구 도봉로 지하 198 (미아역)
04호선,미아사거리,강북구,미아동,416,37.613292,127.030053,서울특별시 강북구 도봉로 지하 50 (미아삼거리역)
04호선,길음,성북구,길음동,417,37.603407,127.025053,서울특별시 성북구 동소문로 지하 248 (길음역)
04호선,성신여대입구,성북구,동선동,418,37.592624,127.016403,서울특별시 성북구 동소문로 지하 102 (성신여대역)
04호선,한성대입구,성북구,삼선동,419,37.588458,127.006221,서울특별시 성북구 삼선교로 지하 1 (한성대입구역)
04호선,혜화,종로구,명륜동,420,37.582336,127.001844,서울특별시 종로구 대학로 지하 120 (혜화역)
04호선,동대문,종로구,종로5.6가동,421,37.57142,127.009745,서울특별시 종로구  율곡로 지하 308 (종로6가) (4호선 동대문역)
04호선,동대문역사문화공원,중구,광희동,422,37.565138,127.007896,서울특별시 중구 장충단로 지하 230 (4호선 동대문역사문화공원역)
04호선,충무로,중구,필동,423,37.561243,126.99428,서울특별시 중구 퇴계로 지하 199 (충무로역)
04호선,명동,중구,명동,424,37.560989,126.986325,서울특별시 중구 퇴계로 지하 126 (명동역)
04호선,회현,중구,남창동,425,37.558514,126.978246,서울특별시 중구 퇴계로 지하 54 (회현역)
04호선,서울,용산구,동자동,426,37.554648,126.972559,서울특별시 용산구 한강대로 지하 392 (동자동) (4호선 서울역)
04호선,숙대입구,용산구,갈월동,427,37.54456,126.972106,서울특별시 용산구 한강대로 지하 306(갈월동) (숙대입구역)
04호선,삼각지,용산구,한강로동,428,37.534777,126.97311,서울특별시 용산구 한강대로 지하 180(한강로1가) (삼각지역)
04호선,신용산,용산구,한강로동,429,37.52917,126.967894,서울특별시 용산구 한강대로 지하 112(한강로2가) (신용산역)
04호선,이촌,용산구,한강로동,430,37.5222735,126.9747217,서울특별시 용산구 서빙고로 지하 83(용산동5가) (이촌역)
04호선,동작,동작구,동작동,431,37.502971,126.979306,서울특별시 동작구 현충로 257(동작동) (4호선 동작역)
04호선,총신대입구,동작구,사당동,432,37.486263,126.981989,서울특별시 동작구 동작대로 지하 117(사당동) (4호선 총신대입구역)
04호선,사당,동작구,사당동,433,37.47653,126.981685,서울특별시 동작구  동작대로 지하 3(사당동) (4호선 사당역)
04호선,남태령,서초구,방배동,434,37.463873,126.989134,서울특별시 서초구 과천대로 지하 816(방배동) (남태령역)
05호선,방화,강서구,방화동,2511,37.577446,126.812741,서울특별시 강서구 방화동 829-15
05호선,개화산,강서구,방화동,2512,37.572399,126.806171,서울특별시 강서구 방화동 846
05호선,김포공항,강서구,방화동,2513,37.562434,126.801058,서울특별시 강서구 방화동 886
05호선,송정,강서구,공항동,2514,37.561184,126.811973,서울특별시 강서구 공항동 29-5
05호선,마곡,강서구,가양동,2515,37.560183,126.825448,서울특별시 강서구 가양동 530-6
05호선,발산,강서구,마곡동,2516,37.558598,126.837668,서울특별시 강서구 마곡동 727-1212
05호선,우장산,강서구,화곡동,2517,37.548768,126.836318,서울특별시 강서구 화곡동 1089-3
05호선,화곡,강서구,화곡동,2518,37.541513,126.840461,서울특별시 강서구 화곡동 1089-54
05호선,까치산,강서구,화곡동,2519,37.531768,126.846683,서울특별시 강서구 화곡동 662-5
05호선,신정,양천구,신정동,2520,37.524997,126.856191,서울특별시 양천구 신정동 1090
05호선,목동,양천구,목동,2521,37.526065,126.864931,서울특별시 양천구 목동 926-3
05호선,오목교,양천구,목동,2522,37.524496,126.875181,서울특별시 양천구 목동 406-30
05호선,양평,영등포구,양평동,2523,37.492832,127.491814,서울특별시 영등포구 양평동2가 33-79
05호선,영등포구청,영등포구,당산동,2524,37.52497,126.895951,서울특별시 영등포구 당산동3가 556-1
05호선,영등포시장,영등포구,영등포동,2525,37.522669,126.905139,서울특별시 영등포구 영등포동5가 62-1
05호선,신길,영등포구,영등포동,2526,37.517122,126.917169,서울특별시 영등포구 영등포동1가 35
05호선,여의도,영등포구,여의도동,2527,37.521624,126.924191,서울특별시 영등포구 여의도동 3
05호선,여의나루,영등포구,여의도동,2528,37.527098,126.932901,서울특별시 영등포구 여의도동 84-4
05호선,마포,마포구,도화동,2529,37.539574,126.945932,서울특별시 마포구 도화동 160
05호선,공덕,마포구,공덕동,2530,37.544018,126.951592,서울특별시 마포구 공덕동 423-29
05호선,애오개,마포구,아현동,2531,37.553736,126.95682,서울특별시 마포구 아현동 612
05호선,충정로,중구,충정로,2532,37.559973,126.963672,서울특별시 서대문구 충정로3가 248-1
05호선,서대문,종로구,평동,2533,37.565773,126.966641,서울특별시 종로구 평동 210
05호선,광화문,종로구,세종로,2534,37.571026,126.976669,서울특별시 종로구 세종로 1-68
05호선,종로3가,종로구,돈의동,2535,37.571607,126.991806,서울특별시 종로구 돈의동 39-1
05호선,을지로4가,중구,주교동,2536,37.566941,126.998079,서울특별시 중구 주교동 191
05호선,동대문역사문화공원,중구,광희동,2537,37.565138,127.007896,서울특별시 중구 광희동1가 235-6
05호선,청구,중구,신당동,2538,37.560245,127.013828,서울특별시 중구 신당동 295-2
05호선,신금호,성동구,금호동,2539,37.554548,127.020331,서울특별시 성동구 금호동2가 223-1
05호선,행당,성동구,행당동,2540,37.557322,127.029476,서울특별시 성동구 행당동 317-241
05호선,왕십리,성동구,행당동,2541,37.561533,127.037732,서울특별시 성동구 행당동 192
05호선,마장,성동구,마장동,2542,37.5661,127.042973,서울특별시 성동구 마장동 772
05호선,답십리,성동구,용답동,2543,37.566747,127.052704,서울특별시 성동구 용답동 99
05호선,장한평,동대문구,장안동,2544,37.56144,127.064623,서울특별시 동대문구 장안동 472-3
05호선,군자,광진구,능동,2545,37.557121,127.079542,서울특별시 광진구 능동 275-5
05호선,아차산,광진구,능동,2546,37.551691,127.089761,서울특별시 광진구 능동 256-16
05호선,광나루,광진구,광장동,2547,37.545303,127.10357,서울특별시 광진구 광장동 237
05호선,천호,강동구,천호동,2548,37.538397,127.123572,서울특별시 강동구 천호동 455
05호선,강동,강동구,천호동,2549,37.535804,127.132481,서울특별시 강동구 천호동 447
05호선,길동,강동구,길동,2550,37.537801,127.140004,서울특별시 강동구 길동 378
05호선,굽은다리,강동구,명일동,2551,37.545477,127.142853,서울특별시 강동구 명일동 345-12
05호선,명일,강동구,명일동,2552,37.55137,127.143999,서울특별시 강동구 명일동 312
05호선,고덕,강동구,고덕동,2553,37.555004,127.154151,서울특별시 강동구 고덕동 310
05호선,상일동,강동구,상일동,2554,37.556712,127.166417,서울특별시 강동구 상일동 148
05호선,둔촌동,강동구,둔촌동,2555,37.527788,127.136248,서울특별시 강동구 둔촌동 416
05호선,올림픽공원,송파구,방이동,2556,37.516078,127.130848,서울특별시 송파구 방이동 89-28 
05호선,방이,송파구,방이동,2557,37.508857,127.126133,서울특별시 송파구 방이동 217-2
05호선,오금,송파구,오금동,2558,37.502162,127.128111,서울특별시 송파구 오금동 44-2
05호선,개롱,송파구,가락동,2559,37.498079,127.13482,서울특별시 송파구 가락동 165-2
05호선,거여,송파구,거여동,2560,37.493105,127.14415,서울특별시 송파구 거여동 20-14
05호선,마천,송파구,마천동,2561,37.49499,127.152781,서울특별시 송파구 마천동 307-4
06호선,불광,은평구,대조동,2613,37.610469,126.929887,서울특별시 은평구 대조동 14-1
06호선,응암,은평구,역촌동,,37.59851624,126.9155738,서울특별시 은평구 역촌동 85-41
06호선,역촌,은평구,녹변동,,37.60615899,126.9227945,서울특별시 은평구 녹번동 144-69
06호선,독바위,은평구,불광동,2614,37.618456,126.933031,서울특별시 은평구 불광동 13-33
06호선,연신내,은평구,갈현동,2615,37.619001,126.921008,서울특별시 은평구 갈현동 397
06호선,구산,은평구,구산동,2616,37.611377,126.91727,서울특별시 은평구 구산동 1
06호선,새절,은평구,신사동,2617,37.591148,126.913629,서울특별시 은평구 신사동 337-5
06호선,증산,은평구,증산동,2618,37.583876,126.909645,서울특별시 은평구 증산동 199-8
06호선,디지털미디어시티,은평구,증산동,2619,37.576646,126.900984,서울특별시 은평구 증산동 223-26
06호선,월드컵경기장,마포구,성산동,2620,37.569532,126.899298,서울특별시 마포구 성산동 420
06호선,마포구청,마포구,성산동,2621,37.563515,126.903343,서울특별시 마포구 성산동 592
06호선,망원,마포구,망원동,2622,37.556094,126.910052,서울특별시 마포구 망원동 378
06호선,합정,마포구,합정동,2623,37.549463,126.913739,서울특별시 마포구 합정동 414
06호선,상수,마포구,상수동,2624,37.547716,126.922852,서울특별시 마포구 상수동 309-10
06호선,광흥창,마포구,창전동,2625,37.547456,126.931993,서울특별시 마포구 창전동 145-17
06호선,대흥,마포구,대흥동,2626,37.547771,126.942069,서울특별시 마포구 대흥동 128-1
06호선,공덕,마포구,공덕동,2627,37.544018,126.951592,서울특별시 마포구 공덕동 439
06호선,효창공원앞,용산구,효창동,2628,37.539261,126.961351,서울특별시 용산구 효창동 80
06호선,삼각지,용산구,한강로동,2629,37.534777,126.97311,서울특별시 용산구 한강로1가 45-1
06호선,녹사평,용산구,용산동,2630,37.534675,126.986695,서울특별시 용산구 용산동4가 4
06호선,이태원,용산구,이태원동,2631,37.534488,126.994302,서울특별시 용산구 이태원동 119-23
06호선,한강진,용산구,한남동,2632,37.539631,127.001725,서울특별시 용산구 한남동 726-494
06호선,버티고개,중구,신당동,2633,37.548013,127.007055,서울특별시 중구 신당동 366-454
06호선,약수,중구,신당동,2634,37.55434,127.010655,서울특별시 중구 신당동 369-2
06호선,청구,중구,신당동,2635,37.560245,127.013828,서울특별시 중구 신당동 295-2
06호선,신당,중구,흥인동,2636,37.565972,127.01782,서울특별시 중구 흥인동 162-1
06호선,동묘앞,종로구,창신동,2637,37.572627,127.016429,서울특별시 종로구 창신동 263-2
06호선,창신,종로구,창신동,2638,37.579661,127.015241,서울특별시 종로구 창신동 20-8
06호선,보문,성북구,보문동,2639,37.585286,127.019381,서울특별시 성북구 보문동1가 127-1
06호선,안암,성북구,안암동,2640,37.586272,127.029005,서울특별시 성북구 안암동5가 146-1
06호선,고려대,성북구,종암동,2641,37.590508,127.036296,서울특별시 성북구 종암동 29-18
06호선,월곡,성북구,하월곡동,2642,37.601948,127.041518,서울특별시 성북구 하월곡동 35-1
06호선,상월곡,성북구,상월곡동,2643,37.606377,127.048491,서울특별시 성북구 상월곡동 26-1
06호선,돌곶이,성북구,석관동,2644,37.610537,127.056431,서울특별시 성북구 석관동 349-8
06호선,석계,노원구,월계동,2645,37.614805,127.065851,서울특별시 노원구 월계동 25-2
06호선,태릉입구,노원구,공릉동,2646,37.617983,127.07512,서울특별시 노원구 공릉동 616-4
06호선,화랑대,노원구,공릉동,2647,37.620064,127.084689,서울특별시 노원구 공릉동 285-2
06호선,봉화산,중랑구,신내동,2648,37.617283,127.091401,서울특별시 중랑구 신내동 643-1
06호선,신내,중랑구,신내동,2649,37.612887,127.103218,서울특별시 중랑구 신내동 19
07호선,도봉산,도봉구,도봉동,2712,37.689313,127.046222,서울특별시 도봉구 도봉동 38-3
07호선,수락산,노원구,상계동,2713,37.67785,127.055315,서울특별시 노원구 상계동 1132-9
07호선,마들,노원구,상계동,2714,37.66494,127.057675,서울특별시 노원구 상계동 650
07호선,노원,노원구,상계동,2715,37.655128,127.061368,서울특별시 노원구 상계동 729
07호선,중계,노원구,중계동,2716,37.644583,127.064303,서울특별시 노원구 중계동 503-3
07호선,하계,노원구,하계동,2717,37.636352,127.06799,서울특별시 노원구 하계동 273-5
07호선,공릉,노원구,공릉동,2718,37.625742,127.072896,서울특별시 노원구 공릉동 385-4
07호선,태릉입구,노원구,공릉동,2719,37.617983,127.07512,서울특별시 노원구 공릉동 616-4
07호선,먹골,중랑구,묵동,2720,37.610637,127.077725,서울특별시 중랑구 묵동 189-5
07호선,중화,중랑구,중화동,2721,37.602545,127.079264,서울특별시 중랑구 중화동 50-3
07호선,상봉,중랑구,상봉동,2722,37.596362,127.085032,서울특별시 중랑구 상봉동 100-9
07호선,면목,중랑구,면목동,2723,37.588579,127.087503,서울특별시 중랑구 면목동 282-6
07호선,사가정,중랑구,면목동,2724,37.580894,127.088478,서울특별시 중랑구 면목동 495
07호선,용마산,중랑구,면목동,2725,37.573647,127.086727,서울특별시 중랑구 면목동 1316-5
07호선,중곡,광진구,중곡동,2726,37.565923,127.08432,서울특별시 광진구 중곡동 273-2 
07호선,군자,광진구,능동,2727,37.557121,127.079542,서울특별시 광진구 능동 275-5
07호선,어린이대공원,광진구,화양동,2728,37.548014,127.074658,서울특별시 광진구 화양동 164-1
07호선,건대입구,광진구,화양동,2729,37.540693,127.07023,서울특별시 광진구 화양동 6-3
07호선,뚝섬유원지,광진구,자양동,2730,37.53154,127.066704,서울특별시 광진구 자양동 73-2
07호선,청담,강남구,청담동,2731,37.519365,127.05335,서울특별시 강남구 청담동 77-76
07호선,강남구청,강남구,삼성동,2732,37.517186,127.04128,서울특별시 강남구 삼성동 111-44
07호선,학동,강남구,논현동,2733,37.514229,127.031656,서울특별시 강남구 논현동 279-67
07호선,논현,강남구,논현동,2734,37.511093,127.021415,서울특별시 강남구 논현동 279-67
07호선,반포,서초구,잠원동,2735,37.508178,127.011727,서울특별시 서초구 잠원동 103
07호선,고속터미널,서초구,반포동,2736,37.50481,127.004943,서울특별시 서초구 반포동 19-11
07호선,내방,서초구,반포동,2737,37.487618,126.993513,서울특별시 서초구 반포동 19-11
07호선,남성,동작구,사당동,2739,37.484596,126.971251,서울특별시 동작구 사당동 산25-33
07호선,숭실대입구,동작구,상도동,2740,37.496029,126.953822,서울특별시 동작구 상도동 514
07호선,상도,동작구,상도동,2741,37.502834,126.94791,서울특별시 동작구 상도1동 702-1
07호선,장승배기,동작구,상도동,2742,37.504898,126.93915,서울특별시 동작구 상도동 26-20
07호선,신대방삼거리,동작구,대방동,2743,37.499701,126.928276,서울특별시 동작구 대방동 406-10
07호선,보라매,동작구,대방동,2744,37.499872,126.920428,서울특별시 동작구 대방동 466-51
07호선,신풍,영등포구,신길동,2745,37.50008,126.90993,서울특별시 영등포구 신길동 3599
07호선,대림,영등포구,대림동,2746,37.49297,126.895801,서울특별시 영등포구 대림동 1050-17
07호선,남구로,구로구,구로동,2747,37.486056,126.887249,서울특별시 구로구 구로동 801-95
07호선,가산디지털단지,금천구,가산동,2748,37.481072,126.882343,서울특별시 금천구 가산동 468-4
07호선,천왕,구로구,오류동,2751,37.486637,126.838713,서울특별시 구로구 오류동 174-5
07호선,온수,구로구,온수동,2752,37.492258,126.823388,서울특별시 구로구 온수동 119
07호선,이수,동작구,사당동,2755,37.48765723,126.9822528,서울특별시 동작구 사당동 144-4
08호선,석촌,송파구,석촌동,2816,37.505431,127.106979,서울특별시 송파구 석촌동 209
08호선,송파,송파구,가락동,2817,37.499703,127.112183,서울특별시 송파구 가락동 459-4
08호선,가락시장,송파구,가락동,2818,37.492522,127.118234,서울특별시 송파구 가락동 184-23
08호선,문정,송파구,문정동,2819,37.485855,127.1225,서울특별시 송파구 문정동 119-4
08호선,장지,송파구,장지동,2820,37.478703,127.126191,서울특별시 송파구 장지동 201-5
08호선,복정,송파구,장지동,2821,37.470047,127.126662,서울특별시 송파구 장지동 596-21
08호선,강동구청,강동구,성내동,,37.53452739,127.121995,서울특별시 강동구 성내동 319
08호선,몽촌토성(평화의문),송파구,신천동,,37.51750307,127.1123546,서울특별시 송파구 신천동 19
08호선,암사,강동구,암사동,,37.55038063,127.1275076,서울특별시 강동구 암사동 501
08호선,잠실(송파구청),송파구,신천동,,37.51485167,127.1042764,서울특별시 송파구 신천동 7-4
08호선,천호,강동구,천호동,,37.53869221,127.1233916,서울특별시 강동구 천호동 455
09호선,가양,강서구,가양동,4107,37.561391,126.854456,서울특별시 강서구 양천로 485
09호선,증미,강서구,등촌동,4108,37.557402,126.861939,서울특별시 강서구 양천로 560
09호선,등촌,강서구,등촌동,4109,37.550632,126.865689,서울특별시 강서구 공항대로 529
09호선,염창,강서구,염창동,4110,37.546936,126.874916,서울특별시 강서구 공항대로 631
09호선,신목동,양천구,목동,4111,37.544277,126.88308,서울특별시 양천구 목동중앙로 217
09호선,선유도,영등포구,양평동,4112,37.53802,126.893525,서울특별시 영등포구 양평로 124
09호선,당산,영등포구,당산동,4113,37.53438,126.902281,서울특별시 영등포구 양평로 40
09호선,국회의사당,영등포구,여의도동,4114,37.528105,126.917874,서울특별시 영등포구 국회대로 758
09호선,여의도,영등포구,여의도동,4115,37.521624,126.924191,서울특별시 영등포구 의사당대로 101
09호선,샛강,영등포구,여의도동,4116,37.517274,126.928422,서울특별시 영등포구 의사당대로 166
09호선,노량진,동작구,동작동,4117,37.514219,126.942454,서울특별시 동작구 노량진로 130
09호선,노들,동작구,본동,4118,37.512887,126.953222,서울특별시 동작구 노량진로 238
09호선,흑석,동작구,흑석동,4119,37.50877,126.963708,서울특별시 동작구 현충로 90
09호선,동작,동작구,동작동,4120,37.502971,126.979306,서울특별시 동작구 현충로 220
09호선,구반포,서초구,반포동,4121,37.501364,126.987332,서울특별시 서초구 신반포로 17
09호선,신반포,서초구,반포동,4122,37.503415,126.995925,서울특별시 서초구 신반포로 105
09호선,고속터미널,서초구,반포동,4123,37.50481,127.004943,서울특별시 서초구 신반포로 188
09호선,사평,서초구,반포동,4124,37.504206,127.015259,서울특별시 서초구 사평대로 285
09호선,신논현,강남구,역삼동,4125,37.504598,127.02506,서울특별시 강남구 봉은사로 102
09호선,언주,강남구,논현동,4126,37.507287,127.033868,서울특별시 강남구 봉은사로 201
09호선,선정릉,강남구,삼성동,4127,37.51098,127.043593,서울특별시 강남구 선릉로 580
09호선,삼성중앙,강남구,삼성동,4128,37.513011,127.053282,서울특별시 강남구 봉은사로 501
09호선,봉은사,강남구,삼성동,4129,37.514219,127.060245,서울특별시 강남구 봉은사로 601
09호선,종합운동장,송파구,잠실동,4130,37.510997,127.073642,서울특별시 송파구 올림픽로 23
09호선,삼전,송파구,잠실본동,4131,37.5043218,127.0880179,서울특별시 송파구 잠실본동 삼전사거리
09호선,석촌고분,송파구,삼전동,4132,37.50241614,127.0969056,서울특별시 송파구 삼전동 180-8
09호선,석촌,송파구,석촌동,4133,37.505431,127.106979,서울특별시 송파구 석촌동 209
09호선,송파나루,송파구,방이동,4134,37.51031498,127.1122235,서울특별시 송파구 방이동 2
09호선,한성백제,송파구,방이동,4135,37.51641398,127.1159814,서울특별시 송파구 방이동 88-21
09호선,올림픽공원,송파구,방이동,4136,37.516078,127.130848,서울특별시 송파구 방이동 89-28
09호선,둔촌오륜,강동구,둔촌동,4137,37.51957679,127.1386965,서울특별시 강동구 둔촌동 227-7
09호선,중앙보훈병원,강동구,둔촌동,4138,37.52898098,127.1485284,서울특별시 강동구 둔촌동 8-1
09호선,개화,강서구,개화동,,37.57873607,126.7969456,서울특별시 강서구 개화동 493-2
09호선,공항시장,강서구,공항동,,37.56367852,126.8105913,서울특별시 강서구 공항동 산 20-2
09호선,김포공항,강서구,방화동,,37.56198415,126.8017696,서울특별시 강서구 방화동 886
09호선,마곡나루,강서구,방화동,,37.56669446,126.8273539,서울특별시 강서구 마곡동 367-6
09호선,신방화,강서구,방화동,,37.56765682,126.8173353,서울특별시 강서구 방화동 217-156
09호선,양천향교,강서구,가양동,,37.56849012,126.8412888,서울특별시 강서구 가양동 159-3
경의선,이촌,용산구,이촌동,1008,37.522272,126.974345,서울특별시 용산구 이촌로 71길 42
경의선,서빙고,용산구,서빙고동,1009,37.519594,126.988537,서울특별시 용산구 서빙고로 238
경의선,한남,용산구,한남동,1010,37.52943,127.009169,서울특별시 용산구 독서당로 6길 12-13
경의선,옥수,성동구,옥수동,1011,37.540685,127.017965,서울특별시 성동구 동호로 21
경의선,응봉,성동구,응봉동,1012,37.549946,127.034538,서울특별시 성동구 고산자로 123
경의선,왕십리,성동구,행당동,1013,37.561533,127.037732,서울특별시 성동구 왕십리광장로 17
경의선,청량리,동대문구,전농동,1014,37.580178,127.046835,서울특별시 동대문구 왕산로 214
경의선,중랑,중랑구,중화동,1201,37.594917,127.076116,서울특별시 중랑구 중랑역로 9
경의선,상봉,중랑구,상봉동,1202,37.596362,127.085032,서울특별시 중랑구 망우로 297
경의선,망우,중랑구,상봉동,1203,37.59955,127.091909,서울특별시 중랑구 망우로 55길 11-10
경의선,양원,중랑구,망우동,1204,37.606596,127.107906,서울특별시 중랑구 송림길 147
경의선,서울,중구,봉래동2가,1251,37.554648,126.972559,서울특별시 중구 통일로 1
경의선,신촌,서대문구,신촌동,1252,37.555134,126.936893,서울특별시 서대문구 신촌역로 30
경의선,효창공원앞,용산구,효창동,1261,37.539261,126.961351,서울특별시 용산구 백범로 지하287 (효창동)
경의선,공덕,마포구,도화동,1262,37.544018,126.951592,서울특별시 마포구 마포대로 92
경의선,서강대,마포구,노고산동,1263,37.551881,126.935711,서울특별시 마포구 서강로 118
경의선,홍대입구,마포구,동교동,1264,37.557192,126.925381,서울특별시 마포구 양화로 188
경의선,가좌,서대문구,남가좌동,1265,37.568491,126.915487,서울특별시 서대문구 수색로 27
경의선,디지털미디어시티,은평구,수색동,1266,37.576646,126.900984,서울특별시 은평구 수색로 193
경의선,수색,은평구,수색동,1267,37.580842,126.895611,서울특별시 은평구 수색로 261-1
경의선,용산,용산구,한강로동,,37.529849,126.964561,서울특별시 용산구 한강대로 23길 55
경의선,회기,동대문구,휘경동,,37.58946,127.057583,서울특별시 동대문구 회기로 196
경춘선,광운대,노원구,월계동,1305,37.623632,127.061835,서울특별시 노원구 석계로 98-2
경춘선,청량리,동대문구,전농동,1306,37.580178,127.046835,서울특별시 동대문구 왕산로 214
경춘선,회기,동대문구,휘경동,1307,37.58946,127.057583,서울특별시 동대문구 회기로 196
경춘선,중랑,중랑구,중화동,1308,37.594917,127.076116,서울특별시 중랑구 중랑역로 9
경춘선,상봉,중랑구,상봉동,1309,37.596362,127.085032,서울특별시 중랑구 망우로 297
경춘선,망우,중랑구,상봉동,1310,37.59955,127.091909,서울특별시 중랑구 망우로 55길 11-10
경춘선,신내,중랑구,망우동,1311,37.612887,127.103218,서울특별시 중랑구 신내역로 20
공항철도,서울,용산구,청파로,4201,37.554648,126.972559,서울특별시 용산구 청파로 378
공항철도,공덕,마포구,마포대로,4202,37.544018,126.951592,서울특별시 마포구 마포대로 100
공항철도,홍대입구,마포구,양화로,4203,37.557192,126.925381,서울특별시 마포구 양화로 188
공항철도,디지털미디어시티,은평구,수색로,4204,37.576646,126.900984,서울특별시 은평구 수색로 193
공항철도,마곡나루,강서구,마곡동,4206,37.567336,126.829497,서울특별시 강서구 마곡동 373-10
김포도시철도,김포공항,강서구,하늘길,4929,37.562434,126.801058,서울특별시 강서구 하늘길 77 (방화동)
분당선,선릉,강남구,삼성동,1023,37.504503,127.049008,서울특별시 강남구 선릉로 340
분당선,한티,강남구,대치동,1024,37.496237,127.052873,서울특별시 강남구 선릉로 228
분당선,도곡,강남구,도곡동,1025,37.490858,127.055381,서울특별시 강남구 남부순환로 2814
분당선,구룡,강남구,개포동,1026,37.486839,127.058856,서울특별시 강남구 개포로 403
분당선,개포동,강남구,개포동,1027,37.489116,127.06614,서울특별시 강남구 개포로 420
분당선,대모산입구,강남구,일원동,1028,37.491373,127.07272,서울특별시 강남구 개포로 522
분당선,수서,강남구,수서동,1030,37.487371,127.10188,서울특별시 강남구 광평로 270
분당선,복정,송파구,장지동,1031,37.470047,127.126662,서울특별시 송파구 송파대로 6
분당선,청량리,동대문구,전농동,1845,37.580178,127.046835,서울특별시 동대문구 왕산로 214
분당선,서울숲,성동구,성수동1가,1847,37.543617,127.044707,서울특별시 성동구 왕십리로 77
분당선,압구정로데오,강남구,압구정동,1848,37.527381,127.040534,서울특별시 강남구 압구정로 402
분당선,강남구청,강남구,삼성동,1849,37.517186,127.04128,서울특별시 강남구 학동로 346
분당선,선정릉,강남구,삼성동,1850,37.51098,127.043593,서울특별시 강남구 선릉로 580
분당선,왕십리,성동구,행당동,,37.561533,127.037732,서울특별시 성동구 왕십리광장로 17
신분당선,강남,강남구,강남대로,4307,37.497175,127.027926,서울특별시 강남구 강남대로 396
신분당선,양재,서초구,남부순환로,4308,37.484147,127.034631,서울특별시 서초구 남부순환로 2585
신분당선,양재시민의숲,서초구,매헌로,4309,37.470023,127.03842,서울특별시 서초구 매헌로 116
신분당선,청계산입구,서초구,청계산로,4310,37.447211,127.055664,서울특별시 서초구 청계산로 179
우이신설경전철,북한산우이,강북구,우이동,4701,37.663146,127.012789,서울특별시 강북구 우이동 16-20
우이신설경전철,솔밭공원,강북구,우이동,4702,37.656088,127.013252,서울특별시 강북구 우이동 57-28
우이신설경전철,419민주묘지,강북구,우이동,4703,37.649593,127.013746,서울특별시 강북구 우이동 72-186
우이신설경전철,가오리,강북구,수유동,4704,37.641701,127.016792,서울특별시 강북구 수유동 338-46
우이신설경전철,화계,강북구,수유동,4705,37.634802,127.017519,서울특별시 강북구 수유동 472-677
우이신설경전철,삼양,강북구,미아동,4706,37.627165,127.018152,서울특별시 강북구 미아동 791-4703
우이신설경전철,삼양사거리,강북구,미아동,4707,37.621512,127.02048,서울특별시 강북구 미아동 745-142
우이신설경전철,솔샘,강북구,솔샘로,4708,37.62124,127.013528,서울특별시 강북구 솔샘로 159
우이신설경전철,북한산보국문,성북구,정릉동,4709,37.612343,127.008009,서울특별시 성북구 정릉동 286-19
우이신설경전철,정릉,성북구,정릉동,4710,37.602798,127.01349,서울특별시 성북구 정릉동 966-330
우이신설경전철,성신여대입구,성북구,동선동,4711,37.592624,127.016403,서울특별시 성북구 동선동1가 101-8
우이신설경전철,보문,성북구,보문동,4712,37.585286,127.019381,서울특별시 성북구 보문동2가 91-7
우이신설경전철,신설동,동대문구,신설동,4713,37.575297,127.025087,서울특별시 동대문구 신설동 132-30
